City ID,City,Cloudiness,Country,Date,Humidity,Lat,Lng,Max Temp,Wind Speed
70275,wysokie mazowieckie,71,PL,1612588532,88,52.9166,22.5171,PL,3.13
1007,yellowknife,20,CA,1612588850,74,62.456,-114.3525,CA,2.06
8303,ushuaia,75,AR,1612588847,93,-54.8,-68.3,AR,7.72
1973,port elizabeth,75,ZA,1612588729,88,-33.918,25.5701,ZA,2.06
2061,mahebourg,75,MU,1612588604,94,-20.4081,57.7,MU,3.09
8669,cayenne,90,GF,1612588880,100,4.9333,-52.3333,GF,2.57
2033165,soto la marina,22,MX,1612588880,91,23.7667,-98.2167,MX,0.61
4441,huntsville,1,US,1612588627,80,34.7304,-86.5861,US,1.08
1966,bredasdorp,0,ZA,1612588840,94,-34.5322,20.0403,ZA,0.51
7271,avarua,20,CK,1612588834,78,-21.2078,-159.775,CK,1.54
7649,barrow,90,US,1612588642,77,71.2906,-156.7887,US,2.57
7729,juneau,90,US,1612588748,80,58.3019,-134.4197,US,1.54
7881,hilo,1,US,1612588645,56,19.7297,-155.09,US,3.09
8926,nikolskoye,75,RU,1612588727,85,59.7035,30.7861,RU,6
8772,bathsheba,40,BB,1612588470,65,13.2167,-59.5167,BB,8.75
2006131,hermanus,3,ZA,1612588830,94,-34.4187,19.2345,ZA,1.65
2005401,victor harbor,61,AU,1612588886,79,-35.5667,138.6167,AU,4.47
9218,madras,20,IN,1612588887,51,13.0878,80.2785,IN,3.09
7873,kapaa,20,US,1612588831,68,22.0752,-159.319,US,3.6
9525,esperance,90,AU,1612588622,72,-33.8667,121.9,AU,6.69
8491,coihaique,0,CL,1612588843,55,-45.5752,-72.0662,CL,3.6
8691,pisco,0,PE,1612588631,88,-13.7,-76.2167,PE,1.54
1364,naantali,20,FI,1612588889,85,60.4674,22.0243,FI,2.06
8487,punta arenas,0,CL,1612588808,75,-53.15,-70.9167,CL,2.57
9545,hobart,20,AU,1612588820,38,-42.8794,147.3294,AU,8.75
1912,east london,90,ZA,1612588614,100,-33.0153,27.9116,ZA,2.57
9520,cooma,75,AU,1612588893,43,-36.2333,149.1333,AU,6.69
7285,vaini,75,TO,1612588733,94,-21.2,-175.2,TO,2.06
2018289,burnie,42,AU,1612588894,85,-41.0667,145.9167,AU,2.24
8872,anadyr,40,RU,1612588368,85,64.75,177.4833,RU,5
797,iqaluit,40,CA,1612588839,79,63.7506,-68.5145,CA,6.17
8854,kangalassy,100,RU,1612588897,67,62.3464,129.9628,RU,1
7668,kodiak,1,US,1612588832,44,57.79,-152.4072,US,9.77
9218,mamallapuram,20,IN,1612588898,51,12.6264,80.1722,IN,3.09
9505,carnarvon,75,AU,1612588727,70,-24.8667,113.6333,AU,8.75
6160,springdale,1,US,1612588498,52,36.1867,-94.1288,US,1.54
9594,ulladulla,75,AU,1612588474,100,-35.35,150.4667,AU,3.09
5325,pecos,1,US,1612588901,20,31.4229,-103.4932,US,2.06
3273,albany,75,US,1612588811,80,42.6001,-73.9662,US,4.12
2127,saint-philippe,20,RE,1612588765,69,-21.3585,55.7679,RE,2.06
2008303,busselton,100,AU,1612588717,66,-33.65,115.3333,AU,1.34
165,ilulissat,20,GL,1612588862,37,69.2167,-51.1,GL,2.06
9429,georgetown,20,MY,1612588857,52,5.4112,100.3354,MY,2.06
2005652,puerto ayora,21,EC,1612588830,98,-0.7393,-90.3518,EC,2.68
2035706,bardstown,37,US,1612588906,67,37.8092,-85.4669,US,1.7
8452,touros,0,BR,1612588907,88,-5.1989,-35.4608,BR,1.03
4588,jamestown,90,US,1612588831,86,42.097,-79.2353,US,4.12
2000079,nynashamn,78,SE,1612588907,66,58.9034,17.9479,SE,6.32
7487,tabas,32,IR,1612588911,18,33.5959,56.9244,IR,1.03
5093,jacksonville,90,US,1612588912,82,30.3322,-81.6556,US,4.12
3705,san patricio,90,US,1612588778,88,28.017,-97.5169,US,6.69
6900,barcelos,75,PT,1612588569,76,41.5388,-8.6151,PT,7.2
9600,sidney,75,AU,1612588656,78,-33.8679,151.2073,AU,7.2
7318,teahupoo,75,PF,1612588916,65,-17.8333,-149.2667,PF,3.09
8340,boa vista,0,BR,1612588789,73,2.8197,-60.6733,BR,4.12
1918,knysna,90,ZA,1612588916,94,-34.0363,23.0471,ZA,1.54
942,tuktoyaktuk,75,CA,1612588840,68,69.4541,-133.0374,CA,3.6
8305,mar del plata,0,AR,1612588734,72,-38.0023,-57.5575,AR,5.14
4891,mitchell,1,US,1612588920,66,43.7094,-98.0298,US,7.2
2011314,port alfred,99,ZA,1612588596,92,-33.5906,26.891,ZA,6.12
4747,lompoc,1,US,1612588602,93,34.6391,-120.4579,US,2.06
1899,cape town,20,ZA,1612588876,94,-33.9258,18.4232,ZA,6.17
7426,riyadh,75,SA,1612588759,77,24.6877,46.7219,SA,3.09
6974,biga,69,TR,1612588924,100,40.2281,27.2422,TR,0.51
8413,maceio,0,BR,1612588826,88,-9.6658,-35.7353,BR,3.09
5769,laguna,1,US,1612588857,71,38.421,-121.4238,US,1.58
8022,wajima,75,JP,1612588925,61,37.4,136.9,JP,8.75
9495,mount isa,40,AU,1612588926,38,-20.7333,139.5,AU,5.66
2007718,erzin,0,TR,1612588927,69,36.9559,36.2,TR,0.89
7877,ahuimanu,90,US,1612588873,60,21.4447,-157.8378,US,2.57
81,tasiilaq,90,GL,1612588855,63,65.6145,-37.6368,GL,6.17
8969,oktyabrskoye,75,RU,1612588928,93,43.0645,44.7417,RU,2
8892,bratsk,99,RU,1612588804,85,56.1325,101.6142,RU,4
90,grindavik,40,IS,1612588930,69,63.8424,-22.4338,IS,8.23
696,la ronge,38,CA,1612588930,69,55.1001,-105.2842,CA,2.57
2000,kalakamati,75,BW,1612588932,88,-20.5929,27.3121,BW,3.6
2004617,trapani,0,IT,1612588645,57,37.8333,12.6667,IT,0.89
5832,saint george,1,US,1612588932,34,37.1041,-113.5841,US,1.95
9154,victoria,20,HK,1612588838,53,22.2855,114.1577,HK,3.6
2827,avera,90,US,1612588935,57,33.194,-82.5271,US,2.06
1602,roald,8,NO,1612588935,68,62.5833,6.1333,NO,5.66
1696,wladyslawowo,75,PL,1612588936,86,54.7909,18.4009,PL,3.6
309,sept-iles,100,CA,1612588757,100,50.2001,-66.3821,CA,3.09
7306,alofi,100,NU,1612588846,83,-19.0595,-169.9187,NU,3.6
3598,palmer,20,US,1612588939,93,42.1584,-72.3287,US,2.06
3429,broome,90,US,1612588841,54,42.2506,-75.833,US,3.6
6434,silleda,90,ES,1612588943,87,42.696,-8.2465,ES,6.69
7318,tautira,75,PF,1612588943,65,-17.7333,-149.15,PF,3.09
2031307,new norfolk,52,AU,1612588832,53,-42.7826,147.0587,AU,3.13
20126,methven,73,NZ,1612588944,64,-43.6333,171.65,NZ,0.89
8512,ancud,0,CL,1612588862,67,-41.8697,-73.8203,CL,2.57
9499,yeppoon,27,AU,1612588946,40,-23.1333,150.7333,AU,4.12
47,narsaq,0,GL,1612588946,53,60.9167,-46.05,GL,2.06
998,torbay,90,CA,1612588893,93,47.6666,-52.7314,CA,9.77
6717,alghero,0,IT,1612588948,81,40.5589,8.3181,IT,2.57
2016711,llanes,100,ES,1612588949,76,43.4198,-4.7549,ES,7.33
1353,rauma,0,FI,1612588951,86,61.1272,21.5113,FI,3.09
2020803,mandello del lario,100,IT,1612588953,99,45.9192,9.3193,IT,0.6
2127,saint-pierre,20,RE,1612588607,69,-21.3393,55.4781,RE,2.06
9678,acheng,100,CN,1612588954,67,45.5454,126.977,CN,4
5775,rincon,90,US,1612588954,81,32.296,-81.2354,US,4.12
2061,bambous virieux,75,MU,1612588877,94,-20.3428,57.7575,MU,3.09
4980,pacific grove,1,US,1612588680,81,36.6177,-121.9166,US,2.57
6171,las vegas,1,US,1612588522,30,36.175,-115.1372,US,3.09
7976,nemuro,75,JP,1612588960,65,43.3236,145.575,JP,4.12
2020742,margate,0,GB,1612588961,92,51.3813,1.3862,GB,0.89
2608,msanga,20,TZ,1612588961,88,-6.05,36.0333,TZ,0.95
7770,nome,90,US,1612588961,93,64.5011,-165.4064,US,8.23
2005257,hamilton,64,US,1612588812,85,39.1834,-84.5333,US,4.14
6899,vila franca do campo,40,PT,1612588964,94,37.7167,-25.4333,PT,3.6
8971,almaznyy,40,RU,1612588569,73,48.0448,40.045,RU,5
2038233,morrope,100,PE,1612588967,88,-6.5417,-80.0111,PE,1.79
1596,klaksvik,40,FO,1612588968,60,62.2266,-6.589,FO,6.17
8801,the valley,40,AI,1612588171,69,18.217,-63.0578,AI,5.14
8682,lima,75,PE,1612588540,88,-12.0432,-77.0282,PE,4.63
2002613,verdun,100,FR,1612588970,95,49.25,5.3333,FR,0.89
1646,karasjok,75,NO,1612588970,86,69.4719,25.5112,NO,5.14
7431,sakakah,40,SA,1612588970,93,29.9697,40.2064,SA,5.14
2208,quelimane,40,MZ,1612588973,94,-17.8786,36.8883,MZ,2.06
2019045,eureka,68,US,1612588806,93,40.8021,-124.1637,US,4.86
8712,minas,0,UY,1612588976,100,-34.3759,-55.2377,UY,2.06
1796,visby,75,SE,1612588977,79,57.6409,18.296,SE,6.69
9522,geraldton,90,AU,1612588845,57,-28.7667,114.6,AU,13.89
9490,mareeba,75,AU,1612588979,70,-17,145.4333,AU,1.54
2031602,frederico westphalen,0,BR,1612588979,93,-27.3592,-53.3944,BR,1.33
979,sioux lookout,75,CA,1612588981,71,50.1001,-91.917,CA,6.17
2008291,ponta do sol,47,PT,1612588880,70,32.6667,-17.1,PT,0.89
6499,saint-francois,90,FR,1612588809,100,46.4154,3.9054,FR,1.54
4674,north platte,90,US,1612588850,80,41.1239,-100.7654,US,5.66
5876,orange,1,US,1612588863,76,33.7,-117.7675,US,1.54
8352,chapada dos guimaraes,0,BR,1612588984,83,-15.4606,-55.7497,BR,2.06
331,vernon,38,CA,1612588985,86,50.2581,-119.2691,CA,1.03
894,kenora,75,CA,1612588985,77,49.8167,-94.4337,CA,5.66
8417,nisia floresta,20,BR,1612588987,83,-6.0911,-35.2086,BR,1.03
83,husavik,90,IS,1612588876,64,66.0449,-17.3389,IS,5.66
7022,chisinau,90,MD,1612588698,93,47.0056,28.8575,MD,4.63
8575,benjamin aceval,0,PY,1612588989,94,-24.9667,-57.5667,PY,1.38
2035725,lindas,0,NO,1612588989,73,60.7381,5.16,NO,0.45
4263,grand island,90,US,1612588990,73,40.925,-98.342,US,1.54
8854,namtsy,100,RU,1612588991,67,62.7161,129.6658,RU,1
9333,banjar,20,ID,1612588992,89,-8.19,114.9675,ID,2.06
2016210,lata,100,PT,1612588840,88,40.1629,-8.3327,PT,1.34
2007154,marawi,60,PH,1612588994,79,7.9986,124.2928,PH,2.68
8293,rio gallegos,0,AR,1612588995,65,-51.6226,-69.2181,AR,3.6
2000177,carballo,96,ES,1612588796,79,43.213,-8.691,ES,3.58
8988,melioratorov,0,RU,1612588998,87,57.2107,65.6077,RU,8
6560,ploemeur,0,FR,1612588999,100,47.7333,-3.4333,FR,2.57
3888,bethel,1,US,1612588763,51,41.3712,-73.414,US,5.14
7955,hasaki,20,JP,1612588823,36,35.7333,140.8333,JP,3.09
2033627,flinders,96,AU,1612588622,85,-34.5833,150.8552,AU,2.24
3734,wichita falls,1,US,1612588638,42,33.9137,-98.4934,US,4.12
2010353,necochea,0,AR,1612588600,57,-38.5473,-58.7368,AR,6.72
8511,valparaiso,90,CL,1612588715,88,-33.0393,-71.6273,CL,1.64
8781,saint-georges,40,GD,1612589008,83,12.0564,-61.7485,GD,6.17
3792,dubuque,1,US,1612588927,72,42.4833,-90.8668,US,6.69
986,fort nelson,75,CA,1612589010,68,58.8053,-122.7002,CA,1.54
6520,saint-remy-de-provence,0,FR,1612589011,100,43.7885,4.8317,FR,1.03
91,selfoss,0,IS,1612589012,69,63.9331,-20.9971,IS,7.2
2035504,champerico,64,GT,1612589013,93,14.3,-91.9167,GT,3.56
6458,la rochelle,90,FR,1612589015,93,46.1667,-1.15,FR,5.14
2061,souillac,75,MU,1612588735,94,-20.5167,57.5167,MU,3.09
1036,hay river,98,CA,1612588615,68,60.8156,-115.7999,CA,2.06
4761,mount pleasant,90,US,1612589017,76,32.7941,-79.8626,US,2.94
9014,komsomolskiy,100,UZ,1612589018,49,40.4272,71.7189,UZ,2.06
9225,amalapuram,2,IN,1612588627,54,16.5833,82.0167,IN,2.06
2002134,cap malheureux,8,MU,1612589019,85,-19.9842,57.6142,MU,1.79
670,lunenburg,100,CA,1612589020,100,44.3835,-64.3155,CA,12.35
9527,alyangula,90,AU,1612589021,94,-13.8483,136.4192,AU,8.23
2035063,kruisfontein,37,ZA,1612588630,89,-34.0033,24.7314,ZA,0.45
1754,lidkoping,83,SE,1612589024,92,58.5052,13.1577,SE,2.57
2020865,rio grande,62,BR,1612589025,91,-32.035,-52.0986,BR,0.89
4900,saint anthony,1,US,1612589026,66,45.0205,-93.218,US,5.14
4148,fort madison,1,US,1612589027,73,40.6298,-91.3151,US,2.06
7709,homer,1,US,1612588474,93,59.6425,-151.5483,US,2.57
6452,royan,90,FR,1612589029,93,45.6285,-1.0281,FR,2.06
75281,dunedin,34,NZ,1612588496,78,-45.8742,170.5036,NZ,10.73
2131,boueni,0,YT,1612589032,83,-12.9025,45.0761,YT,1.54
8896,kabansk,20,RU,1612589032,66,52.0486,106.6528,RU,1.72
6207,portland,90,US,1612588515,76,45.5234,-122.6762,US,1.22
9057,pipri,0,IN,1612589033,35,19.8,75.5333,IN,2.06
2143,mahajanga,40,MG,1612588626,94,-15.7167,46.3167,MG,0.51
6899,rabo de peixe,40,PT,1612589035,94,37.8,-25.5833,PT,3.6
1943,saldanha,1,ZA,1612588773,88,-33.0117,17.9442,ZA,5.14
2389,buchanan,75,LR,1612588411,94,5.8808,-10.0467,LR,5.14
371,ferme-neuve,100,CA,1612589037,73,46.7001,-75.4493,CA,4.12
1438,lerwick,90,GB,1612589037,64,60.1545,-1.1494,GB,9.26
1715,strzelin,75,PL,1612588801,74,50.7816,17.0648,PL,4.12
2007015,marquette,100,US,1612589039,83,46.5333,-87.6335,US,5.1
7421,najran,0,SA,1612588869,37,17.4924,44.1277,SA,5.15
1571,ebeltoft,75,DK,1612588959,80,56.1944,10.6821,DK,5.66
9124,hambantota,75,LK,1612588837,83,6.1241,81.1185,LK,1.54
2034587,venado tuerto,0,AR,1612589040,90,-33.7456,-61.9688,AR,2.4
2018017,havelock,100,US,1612589040,94,34.8791,-76.9013,US,1.34
2008401,cabra,80,ES,1612589041,83,37.4725,-4.4421,ES,1.34
2007751,vila,99,PT,1612588562,89,42.0304,-8.1588,PT,4.02
951,norman wells,20,CA,1612588831,66,65.282,-126.8329,CA,1.03
7683,college,75,US,1612589043,70,64.8569,-147.8028,US,2.57
9070,porbandar,0,IN,1612589043,20,21.6422,69.6093,IN,6.69
6540,saint-denis,100,FR,1612589044,93,48.9167,2.3333,FR,1.54
935,thompson,40,CA,1612588832,68,55.7435,-97.8558,CA,4.12
1663,longyearbyen,75,SJ,1612588839,80,78.2186,15.6401,SJ,6.17
978,medicine hat,90,CA,1612589049,77,50.0501,-110.6683,CA,2.06
8759,caraballeda,0,VE,1612589049,78,10.6112,-66.8522,VE,4.07
2011713,abbeville,100,FR,1612589050,65,50.1,1.8333,FR,1.59
3527,henderson,1,US,1612588872,28,36.0397,-114.9819,US,3.6
3920,eau claire,1,US,1612588977,60,44.8114,-91.4985,US,6.69
9278,phuket,20,TH,1612589053,55,8,98.25,TH,7.2
2033571,asau,100,RO,1612588606,76,46.4333,26.4,RO,0.24
9549,launceston,90,AU,1612589054,59,-41.45,147.1667,AU,10.8
836,cambridge,90,CA,1612588844,73,43.3601,-80.3127,CA,7.72
7432,turayf,40,SA,1612589056,100,31.6725,38.6637,SA,6.17
72671,muros,98,ES,1612589056,76,42.7762,-9.0603,ES,2.68
8391,pitimbu,20,BR,1612589057,94,-7.4706,-34.8086,BR,1.03
8584,puerto colombia,92,CO,1612589057,88,10.9878,-74.9547,CO,2.06
876,port hawkesbury,90,CA,1612589058,93,45.6169,-61.3485,CA,3.09
7868,nanakuli,1,US,1612589060,64,21.3906,-158.1547,US,2.06
9423,padang,20,ID,1612588798,62,-0.9492,100.3543,ID,2.06
7300,bairiki,75,KI,1612588498,78,1.3292,172.9752,KI,3.09
2032858,virginia beach,98,US,1612588779,87,36.8529,-75.978,US,4.33
2021106,bodden town,0,KY,1612589064,78,19.2833,-81.25,KY,2.24
2202,maputo,75,MZ,1612589064,89,-25.9653,32.5892,MZ,3.09
9585,port hedland,40,AU,1612589065,58,-20.3167,118.5667,AU,5.66
1367,vaasa,0,FI,1612589067,92,63.096,21.6158,FI,2.06
9020,zheleznodorozhnyy,75,RU,1612589067,78,55.7503,38.0042,RU,4
1571,grenaa,75,DK,1612589068,80,56.4158,10.8783,DK,5.66
9501,hervey bay,59,AU,1612588506,42,-25.2986,152.8535,AU,4.63
7868,makakilo city,1,US,1612589068,64,21.3469,-158.0858,US,2.06
86,nuuk,75,GL,1612588850,68,64.1835,-51.7216,GL,7.2
8474,vila velha,75,BR,1612588535,78,-20.3297,-40.2925,BR,3.09
9248,basmat,3,IN,1612589059,46,19.3167,77.1667,IN,1.03
8896,onokhoy,20,RU,1612589071,66,51.932,108.0747,RU,2.77
7165,cabo san lucas,1,MX,1612588595,32,22.8909,-109.9124,MX,3.09
2021605,goure,2,NE,1612588929,28,13.9835,10.2704,NE,2.68
7562,salalah,40,OM,1612588485,53,17.0151,54.0924,OM,0.92
2002441,ashqelon,19,IL,1612589076,100,31.6693,34.5715,IL,2.24
2005871,jena,100,DE,1612589078,96,50.9333,11.5833,DE,0.89
7879,kahului,40,US,1612588870,64,20.8947,-156.47,US,2.57
2037205,ciro marina,9,IT,1612589080,42,39.3732,17.126,IT,1.79
8682,san isidro,75,PE,1612589081,88,-12.1167,-77.05,PE,4.63
9361,ambon,40,ID,1612589081,58,-3.6954,128.1814,ID,5.14
8391,cabedelo,20,BR,1612589082,94,-6.9811,-34.8339,BR,1.03
9535,kingaroy,40,AU,1612589082,31,-26.5333,151.8333,AU,1.03
4127,fortuna,90,US,1612588875,93,40.5982,-124.1573,US,2.57
2019205,arvin,0,US,1612589083,72,35.2091,-118.8284,US,1.12
5938,palm city,40,US,1612588990,82,27.1678,-80.2662,US,0.98
9498,mackay,31,AU,1612589085,66,-21.15,149.2,AU,6.69
2129,mitsamiouli,20,KM,1612589086,83,-11.3847,43.2844,KM,2.06
4736,lincoln,1,US,1612589087,78,40.8,-96.667,US,1.85
8143,hirara,20,JP,1612589088,57,24.8,125.2833,JP,2.06
9560,mount gambier,40,AU,1612588586,56,-37.8333,140.7667,AU,9.77
7974,hakodate,75,JP,1612589088,81,41.7758,140.7367,JP,5.14
2497,mogadishu,40,SO,1612588851,69,2.0371,45.3438,SO,3.6
2409,marrakesh,77,MA,1612589089,93,31.6315,-8.0083,MA,1.54
7614,doha,0,QA,1612588682,78,25.2867,51.5333,QA,3.6
2377,los llanos de aridane,20,ES,1612589093,58,28.6585,-17.9182,ES,3.09
859,chapais,90,CA,1612588612,93,49.7834,-74.8492,CA,4.12
5099,myrtle grove,90,US,1612589095,66,30.421,-87.3075,US,6.69
3409,westport,1,US,1612588588,60,41.1415,-73.3579,US,3.09
9371,keningau,20,MY,1612588989,79,5.3378,116.1602,MY,2.06
4181,great bend,90,US,1612588610,69,38.3645,-98.7648,US,4.63
2006178,gap,100,FR,1612589099,78,44.6667,6,FR,2.41
9487,yulara,62,AU,1612588873,20,-25.2406,130.9889,AU,5.14
2012545,henties bay,52,NA,1612589099,90,-22.116,14.2845,NA,0.89
776,clyde river,75,CA,1612589100,77,70.4692,-68.5914,CA,2.06
8009,taketoyo,20,JP,1612589100,50,34.85,136.9167,JP,2.57
6910,farcasa,90,RO,1612589101,93,47.5833,23.3333,RO,0.51
1647,sistranda,40,NO,1612589102,86,63.7256,8.834,NO,7.2
287,haines junction,100,CA,1612589103,76,60.7522,-137.5108,CA,1.03
5796,rosarito,90,MX,1612589110,87,32.3333,-117.0333,MX,2.52
6362,radnevo,1,BG,1612589112,100,42.3,25.9333,BG,2.06
738,winnipeg,94,CA,1612588735,64,49.8844,-97.147,CA,2.57
984,terrace,90,CA,1612589113,100,54.5163,-128.6035,CA,2.57
4765,russell,90,US,1612588528,81,32.3502,-85.1999,US,1.23
8422,belmonte,75,BR,1612589114,83,-15.8631,-38.8828,BR,4.12
9555,moree,90,AU,1612589115,94,-29.4667,149.85,AU,5.66
4475,mason,75,US,1612589115,80,39.3601,-84.3099,US,6.17
2010153,providencia,0,MX,1612588605,61,28.7167,-111.5833,MX,0.89
2030260,viedma,0,AR,1612588576,81,-40.8135,-62.9967,AR,0.45
274,cap-aux-meules,78,CA,1612589117,93,47.3821,-61.8597,CA,3.09
2016056,palatka,85,US,1612589118,84,29.6486,-81.6376,US,2.37
8232,tigre,0,AR,1612589118,88,-34.426,-58.5796,AR,1.97
9596,dubbo,75,AU,1612588631,94,-32.25,148.6167,AU,3.09
2139,toamasina,20,MG,1612589120,89,-18.1667,49.3833,MG,1.54
2009307,road town,26,VG,1612589121,86,18.4167,-64.6167,VG,2.24
7901,kloulklubed,90,PW,1612589122,94,7.0419,134.2556,PW,3.6
6658,panorama,75,GR,1612589122,93,40.5878,23.0315,GR,1.03
1438,brae,90,GB,1612588888,64,60.3964,-1.353,GB,9.26
1029,aklavik,15,CA,1612588618,76,68.2191,-135.0107,CA,1.54
2030118,mercedes,0,AR,1612589123,73,-34.6515,-59.4307,AR,2.68
6963,develi,0,TR,1612589124,93,38.3906,35.4922,TR,2.06
4444,houma,90,US,1612589124,76,29.5958,-90.7195,US,3.09
7344,moindou,75,NC,1612589125,83,-21.6924,165.677,NC,4.12
2004800,kitimat,100,CA,1612589111,95,54.0524,-128.6534,CA,1.45
2009131,guasave,0,MX,1612589126,83,25.5667,-108.45,MX,1.34
8927,verkhnetulomskiy,75,RU,1612589128,93,68.6073,31.7962,RU,3.15
2030397,port macquarie,100,AU,1612589128,76,-31.4333,152.9167,AU,4.07
2367,gunjur,0,GM,1612589129,77,13.2019,-16.7339,GM,3.09
